City_ID,City,Lat,Lng,Max Temp,Humidity,Cloudiness,Wind Speed,Country,Date
0,new norfolk,-42.7826,147.0587,7.8700000000000045,80,87,1.09,AU,1686611400
1,ribeira grande,38.5167,-28.7,19.470000000000027,100,75,4.12,PT,1686611400
2,ta`u,-14.2336,-169.5144,27.819999999999993,73,76,8.29,AS,1686611401
3,bamboo flat,11.7,92.7167,28.00999999999999,86,86,8.06,IN,1686611401
4,edinburgh of the seven seas,-37.0676,-12.3116,15.439999999999998,93,100,7.21,SH,1686611402
5,bethel,41.3712,-73.414,22.730000000000018,85,100,4.12,US,1686611403
6,joal-fadiout,14.1667,-16.8333,26.360000000000014,81,98,5.05,SN,1686611403
7,thompson,55.7435,-97.8558,23.899999999999977,40,44,2.76,CA,1686611404
8,punta arenas,-53.15,-70.9167,6.2099999999999795,70,20,11.83,CL,1686611404
9,imbituba,-28.24,-48.6703,14.509999999999991,80,100,4.71,BR,1686611405
10,margaret river,-33.95,115.0667,15.629999999999995,69,95,6.76,AU,1686611405
11,blackmans bay,-43.0167,147.3167,7.220000000000027,84,64,2.69,AU,1686611406
12,freetown,8.484,-13.2299,25.45999999999998,89,100,3.9,SL,1686611319
13,nuku'alofa,-21.1333,-175.2,23.339999999999975,73,75,1.03,TO,1686611145
14,port mathurin,-19.6833,63.4167,25.019999999999982,67,64,7.07,MU,1686611407
15,puente alto,-33.6167,-70.5833,12.120000000000005,22,0,2.77,CL,1686611408
16,sinabang,2.4803,96.3801,26.54000000000002,81,76,0.33,ID,1686611409
17,gadzhiyevo,69.2551,33.3362,10.870000000000005,90,100,3.16,RU,1686611409
18,bilibino,68.0546,166.4372,12.870000000000005,91,100,2.56,RU,1686611410
19,shimoda,34.6667,138.95,22.430000000000007,85,85,0.2,JP,1686611410
20,polyarnyy,69.1989,33.4478,10.589999999999975,93,100,3.21,RU,1686611411
21,waitangi,-43.9535,-176.5597,12.269999999999982,90,87,1.79,NZ,1686611411
22,newman,37.3138,-121.0208,29.620000000000005,27,56,1.2,US,1686611412
23,hafar al-batin,28.4328,45.9708,32.81,16,0,2.9,SA,1686611412
24,vadso,70.0744,29.7487,10.240000000000009,62,0,2.06,NO,1686611413
25,dali,25.7,100.1833,14.720000000000027,94,100,1.22,CN,1686611413
26,ust-nera,64.5667,143.2,12.339999999999975,93,100,2.29,RU,1686611414
27,boende,-0.2167,20.8667,21.70999999999998,98,88,0.83,CD,1686611414
28,usinsk,65.9939,57.5281,6.420000000000016,76,100,6.52,RU,1686611415
29,flying fish cove,-10.4217,105.6791,25.970000000000027,88,100,5.14,CX,1686611415
30,kargasok,59.0556,80.8572,6.319999999999993,80,9,3.83,RU,1686611416
31,ancud,-41.8697,-73.8203,6.019999999999982,83,7,1.49,CL,1686611127
32,hermanus,-34.4187,19.2345,15.600000000000023,82,100,11.53,ZA,1686611417
33,saint-louis,16.3333,-15.0,33.70999999999998,20,55,6.09,SN,1686611418
34,souillac,-20.5167,57.5167,23.0,85,32,2.96,MU,1686611418
35,iqaluit,63.7506,-68.5145,3.8700000000000045,60,100,5.81,CA,1686611419
36,tarko-sale,64.9225,77.785,3.519999999999982,74,100,8.87,RU,1686611161
37,chernyshevskiy,63.0128,112.4714,11.20999999999998,43,0,0.78,RU,1686611420
38,tazovsky,67.4667,78.7,0.8000000000000114,97,100,8.34,RU,1686611421
39,fale old settlement,-9.3852,-171.2468,28.529999999999973,77,17,5.86,TK,1686611421
40,shaping,22.7545,112.9565,30.120000000000005,79,83,1.48,CN,1686611222
41,grytviken,-54.2811,-36.5092,-1.660000000000025,94,78,2.52,GS,1686611422
42,arraial do cabo,-22.9661,-42.0278,22.55000000000001,89,0,2.61,BR,1686611423
43,port elizabeth,-33.918,25.5701,14.20999999999998,77,99,1.79,ZA,1686611424
44,gan,43.2333,-0.3833,18.170000000000016,94,75,3.6,FR,1686611424
45,puerto ayora,-0.7393,-90.3518,27.120000000000005,92,48,2.68,EC,1686611425
46,port-aux-francais,-49.35,70.2167,6.4599999999999795,91,100,14.08,TF,1686611425
47,ushuaia,-54.8,-68.3,4.9599999999999795,75,40,13.38,AR,1686611157
48,udachny,66.4167,112.4,12.069999999999993,40,31,6.12,RU,1686611426
49,bubaque,11.2833,-15.8333,27.829999999999984,79,75,2.49,GW,1686611427
50,puerto natales,-51.7236,-72.4875,1.839999999999975,94,97,2.3,CL,1686611427
51,howrah,22.5892,88.3103,28.149999999999977,94,40,0.0,IN,1686611160
52,colonia,50.9333,6.95,21.180000000000007,48,0,2.57,DE,1686611428
53,vikulovo,56.8167,70.6107,7.7900000000000205,68,100,0.3,RU,1686611429
54,argo,37.6333,22.7333,18.360000000000014,78,77,1.39,GR,1686611429
55,codrington,-38.2667,141.9667,10.170000000000016,88,55,6.13,AU,1686611430
56,belyy yar,53.6039,91.3903,10.089999999999975,100,0,1.0,RU,1686611430
57,adamstown,-25.066,-130.1015,20.189999999999998,65,17,3.4,PN,1686611431
58,alice springs,-23.7,133.8833,12.490000000000009,53,0,3.09,AU,1686611431
59,saudarkrokur,65.7461,-19.6394,11.589999999999975,72,90,1.44,IS,1686611432
60,loango,-4.6719,11.8312,23.0,93,21,1.36,CG,1686611433
61,tipitapa,12.1973,-86.0971,30.879999999999995,70,78,3.51,NI,1686611433
62,barda,40.3744,47.1267,24.829999999999984,62,74,1.44,AZ,1686611433
63,hithadhoo,-0.6,73.0833,28.149999999999977,75,90,2.22,MV,1686611434
64,kingston,17.997,-76.7936,30.839999999999975,63,7,1.79,JM,1686611435
65,college,64.8569,-147.8028,17.420000000000016,40,75,5.14,US,1686611436
66,geraldton,-28.7667,114.6,8.379999999999995,87,0,4.63,AU,1686611424
67,medina,24.4686,39.6142,30.389999999999986,20,0,1.03,SA,1686611159
68,isafjordur,66.0755,-23.124,9.329999999999984,76,4,3.6,IS,1686611437
69,valparaiso,-33.0393,-71.6273,7.949999999999989,87,0,0.0,CL,1686611438
70,okha,53.5739,142.9478,7.060000000000002,94,100,2.79,RU,1686611438
71,bredasdorp,-34.5322,20.0403,13.490000000000009,67,100,8.83,ZA,1686611439
72,tiksi,71.6872,128.8694,2.0500000000000114,92,78,0.68,RU,1686611439
73,acarau,-2.8856,-40.12,26.589999999999975,82,1,6.58,BR,1686611440
74,weno,7.4515,151.8468,30.120000000000005,79,75,5.14,FM,1686611440
75,mount isa,-20.7333,139.5,17.019999999999982,51,75,0.0,AU,1686611441
76,susuman,62.7833,148.1667,21.339999999999975,46,98,2.65,RU,1686611441
77,dudinka,69.4058,86.1778,7.720000000000027,70,94,3.85,RU,1686611442
78,utrik,11.2278,169.8474,27.660000000000025,82,88,8.81,MH,1686611443
79,sault ste. marie,46.5168,-84.3333,10.45999999999998,100,100,5.66,CA,1686611443
80,gumla,23.05,84.55,29.089999999999975,35,68,1.63,IN,1686611443
81,afaahiti,-17.75,-149.2833,28.079999999999984,73,44,8.29,PF,1686611444
82,ambalavao,-21.8333,46.9333,13.100000000000023,68,0,0.48,MG,1686611445
83,cabo san lucas,22.8909,-109.9124,33.75999999999999,33,0,3.6,MX,1686611445
84,luderitz,-26.6481,15.1594,13.20999999999998,82,0,4.96,NA,1686611446
85,aasiaat,68.7098,-52.8699,1.009999999999991,77,57,8.72,GL,1686611447
86,tofol,5.3248,163.0078,29.029999999999973,79,100,5.14,FM,1686611447
87,wailua homesteads,22.0669,-159.378,28.389999999999986,78,20,6.17,US,1686611448
88,kavaratti,10.5669,72.642,29.69999999999999,75,97,9.25,IN,1686611448
89,vorgashor,67.5833,63.95,4.100000000000023,57,97,3.8,RU,1686611449
90,qaqortoq,60.7167,-46.0333,6.240000000000009,79,100,2.93,GL,1686611449
91,east london,-33.0153,27.9116,14.45999999999998,68,99,5.63,ZA,1686611450
92,ejigbo,7.9,4.3167,21.80000000000001,90,76,1.38,NG,1686611450
93,harper,4.375,-7.7169,25.25999999999999,79,54,4.36,LR,1686611451
94,yellowknife,62.456,-114.3525,9.189999999999998,59,93,6.72,CA,1686611451
95,kuta,-8.7233,115.1723,27.120000000000005,83,20,6.71,ID,1686611452
96,pacific grove,36.6177,-121.9166,20.339999999999975,75,20,8.75,US,1686611452
97,west island,-12.1568,96.8225,27.139999999999986,83,75,9.13,CC,1686611453
98,hawaiian paradise park,19.5933,-154.9731,28.879999999999995,69,20,3.6,US,1686611453
99,kodiak,57.79,-152.4072,11.879999999999995,54,75,5.14,US,1686611454
100,sosnovo-ozerskoye,52.5249,111.5418,15.0,61,90,4.79,RU,1686611454
101,constantia,44.1833,28.65,13.529999999999973,82,34,7.37,RO,1686611286
102,bocanda,7.0626,-4.4995,21.75999999999999,97,62,1.82,CI,1686611455
103,chonchi,-42.6128,-73.8092,4.100000000000023,95,13,1.11,CL,1686611456
104,bolvadin,38.7111,31.0486,16.329999999999984,77,99,1.59,TR,1686611456
105,nizhneudinsk,54.9076,99.0276,10.259999999999991,98,100,1.9,RU,1686611457
106,launceston,-41.45,147.1667,10.230000000000018,97,100,0.0,AU,1686611248
107,whitehorse,60.7161,-135.0538,16.99000000000001,20,83,8.49,CA,1686611458
108,kerikeri,-35.2268,173.9474,15.319999999999993,64,8,3.58,NZ,1686611458
109,murghob,38.1702,73.9667,8.050000000000011,61,34,0.79,TJ,1686611459
110,mount darwin,-16.7725,31.5838,13.759999999999991,57,2,1.06,ZW,1686611459
111,ilulissat,69.2167,-51.1,3.160000000000025,65,75,4.63,GL,1686611460
112,chui,-33.6971,-53.4616,8.480000000000018,69,37,3.38,UY,1686611460
113,naze,28.3667,129.4833,22.25999999999999,93,98,3.87,JP,1686611461
114,olonkinbyen,70.9221,-8.7187,1.2099999999999795,90,96,7.88,SJ,1686611461
115,albany,42.6001,-73.9662,24.94999999999999,57,100,0.45,US,1686611462
116,longyearbyen,78.2186,15.6401,2.0600000000000023,87,75,5.66,SJ,1686611462
117,garanhuns,-8.8903,-36.4928,18.370000000000005,97,39,3.35,BR,1686611463
118,port augusta,-32.5,137.7667,10.910000000000025,82,1,3.02,AU,1686611464
119,arvayheer,46.2639,102.775,17.480000000000018,32,64,1.34,MN,1686611464
120,saipan,15.1355,145.701,30.54000000000002,100,75,6.17,MP,1686611465
121,kone,-21.0595,164.8658,24.930000000000007,50,23,2.06,NC,1686611466
122,guerrero negro,27.9769,-114.0611,20.5,57,1,9.1,MX,1686611466
123,badger,64.8,-147.5333,17.370000000000005,38,20,5.14,US,1686611193
124,iskateley,67.6803,53.1512,6.759999999999991,90,68,5.01,RU,1686611468
125,thaon-les-vosges,48.25,6.4167,17.230000000000018,69,46,1.96,FR,1686611469
126,atiquizaya,13.9769,-89.7525,25.95999999999998,91,85,2.58,SV,1686611469
127,tolanaro,-25.0319,46.9987,19.029999999999973,93,16,3.3,MG,1686611470
128,broken hill,-31.95,141.4333,9.95999999999998,73,20,7.37,AU,1686611470
129,khorixas,-20.3667,14.9667,10.019999999999982,60,1,1.81,NA,1686611406
130,invercargill,-46.4,168.35,10.420000000000016,90,98,2.19,NZ,1686611376
131,xunchang,28.4543,104.715,19.50999999999999,77,96,1.25,CN,1686611254
132,saint-zotique,45.2501,-74.2492,27.100000000000023,47,100,3.09,CA,1686611472
133,penzance,50.1186,-5.5371,15.529999999999973,89,7,2.8,GB,1686611473
134,campbell river,50.0163,-125.2446,27.360000000000014,32,75,3.09,CA,1686611473
135,jamestown,42.097,-79.2353,13.920000000000016,80,100,5.81,US,1686611474
136,pangody,65.85,74.4859,0.7099999999999795,84,40,6.36,RU,1686611475
137,prince rupert,54.3161,-130.3201,15.199999999999989,84,100,6.17,CA,1686611475
138,nampula,-15.1165,39.2666,15.370000000000005,94,0,1.19,MZ,1686611476
139,soroti,1.7146,33.6111,18.350000000000023,86,97,1.12,UG,1686611476
140,santana do ipanema,-9.3783,-37.2453,21.379999999999995,95,23,2.68,BR,1686611477
141,la passe,45.5549,-0.8967,19.579999999999984,92,98,4.35,FR,1686611477
142,ambon,-3.6954,128.1814,27.30000000000001,81,40,4.12,ID,1686611478
143,labuan,5.2767,115.2417,27.680000000000007,79,93,1.65,MY,1686611478
144,palera,25.0167,79.2333,35.660000000000025,30,55,1.76,IN,1686611422
145,adrar,20.5022,-10.0711,30.779999999999973,18,45,5.41,MR,1686611479
146,suwalki,54.1118,22.9309,10.649999999999977,75,100,3.85,PL,1686611480
147,petropavlovsk-kamchatsky,53.0452,158.6483,19.470000000000027,45,0,2.0,RU,1686611480
148,papatowai,-46.5619,169.4708,10.529999999999973,88,93,3.01,NZ,1686611481
149,osinovo,55.8809,48.881,10.199999999999989,71,0,3.35,RU,1686611482
150,kolda,12.8833,-14.95,28.189999999999998,71,78,4.43,SN,1686611482
151,ivdel',60.6911,60.4206,5.6200000000000045,75,34,2.32,RU,1686611483
152,dalandzadgad,43.5708,104.425,20.730000000000018,25,3,4.47,MN,1686611483
153,olyokminsk,60.3736,120.4264,9.899999999999977,44,8,3.24,RU,1686611483
154,egersund,58.4513,5.9997,15.110000000000014,55,22,1.93,NO,1686611485
155,st. john's,47.5649,-52.7093,7.910000000000025,90,100,3.58,CA,1686611486
156,coxen hole,16.3244,-86.5366,30.75,79,20,9.26,HN,1686611486
157,maracaju,-21.6144,-55.1683,13.54000000000002,93,100,4.12,BR,1686611488
158,ingeniero jacobacci,-41.3427,-69.5448,1.1999999999999886,64,2,1.93,AR,1686611488
159,jaszkiser,47.45,20.2167,12.370000000000005,75,36,5.05,HU,1686611489
160,portoferraio,42.8115,10.3146,24.569999999999993,79,56,3.93,IT,1686611489
161,lebu,-37.6167,-73.65,9.259999999999991,81,0,6.64,CL,1686611490
162,puerto leguizamo,-0.1934,-74.7819,24.25999999999999,96,78,0.62,CO,1686611490
163,zeya,53.75,127.2667,20.910000000000025,55,80,1.21,RU,1686611491
164,rocha,-34.4833,-54.3333,6.8700000000000045,82,23,3.02,UY,1686611491
165,val-d'or,48.1002,-77.7828,21.19999999999999,64,100,1.03,CA,1686611492
166,albufeira,37.0882,-8.2503,20.060000000000002,78,64,4.94,PT,1686611483
167,tromso,69.6496,18.957,8.160000000000025,76,100,7.72,NO,1686611493
168,ibicui,-14.8417,-39.9867,19.160000000000025,85,4,1.33,BR,1686611493
169,priozersk,61.0393,30.1291,6.310000000000002,88,13,3.09,RU,1686611494
170,kaiapoi,-43.3783,172.6401,12.079999999999984,83,100,3.09,NZ,1686611460
171,dhidhdhoo,6.8833,73.1,29.0,78,93,8.34,MV,1686611495
172,portlaoise,53.0344,-7.2998,17.629999999999995,93,80,2.3,IE,1686611496
173,kattivakkam,13.2167,80.3167,30.189999999999998,74,89,7.36,IN,1686611496
174,fortuna,40.5982,-124.1573,17.569999999999993,81,20,9.26,US,1686611497
175,modimolle,-24.7,28.4,12.319999999999993,38,5,4.96,ZA,1686611497
176,atafu village,-8.5421,-172.5159,28.69999999999999,76,28,5.65,TK,1686611498
177,manicore,-5.8092,-61.3003,27.870000000000005,67,58,0.92,BR,1686611498
178,touros,-5.1989,-35.4608,25.279999999999973,85,1,5.03,BR,1686611499
179,tsiombe,-25.3,45.4833,18.610000000000014,94,29,1.2,MG,1686611499
180,fredrikstad,59.2181,10.9298,14.560000000000002,62,58,3.09,NO,1686611201
181,tobelo,1.7284,128.0095,27.05000000000001,82,86,1.7,ID,1686611500
182,cill airne,52.05,-9.5167,15.29000000000002,89,92,1.53,IE,1686611501
183,vilyuchinsk,52.9306,158.4028,20.29000000000002,51,0,2.44,RU,1686611501
184,chifeng,42.2683,118.9636,17.360000000000014,67,24,2.04,CN,1686611502
185,alpena,45.0617,-83.4327,13.329999999999984,92,100,2.06,US,1686611502
186,kavieng,-2.5744,150.7967,28.870000000000005,75,79,5.6,PG,1686611503
187,amga,60.8953,131.9608,4.680000000000007,89,100,2.48,RU,1686611503
188,anadyr,64.75,177.4833,13.430000000000007,58,0,6.0,RU,1686611504
189,la'ie,21.6477,-157.9253,32.129999999999995,69,54,7.63,US,1686611504
190,hamilton,39.1834,-84.5333,20.79000000000002,58,40,6.69,US,1686611505
191,mugia,43.1041,-9.2179,18.430000000000007,91,99,2.51,ES,1686611505
192,chiredzi,-21.05,31.6667,18.930000000000007,35,33,2.34,ZW,1686611506
193,stanley,54.868,-1.6985,13.769999999999982,88,56,1.54,GB,1686611506
194,tongliao,43.6125,122.2653,19.680000000000007,62,7,2.93,CN,1686611507
195,kapuskasing,49.4169,-82.4331,21.19999999999999,52,100,3.09,CA,1686611507
196,fernley,39.608,-119.2518,24.060000000000002,43,97,1.34,US,1686611508
197,palmer,42.1584,-72.3287,24.120000000000005,56,75,4.12,US,1686611508
198,poltavka,54.3663,71.7632,10.180000000000007,63,73,1.67,RU,1686611509
199,fairbanks,64.8378,-147.7164,17.420000000000016,39,20,5.14,US,1686611240
200,pangai,-19.8,-174.35,21.930000000000007,89,92,7.71,TO,1686611510
201,chibougamau,49.9168,-74.3659,24.939999999999998,36,0,3.09,CA,1686611510
202,tarawa,1.419,172.984,30.19999999999999,74,75,1.54,KI,1686611511
203,natal,-5.795,-35.2094,25.50999999999999,88,40,1.54,BR,1686611511
204,tura,25.5198,90.2201,23.629999999999995,96,69,2.45,IN,1686611400
205,krasnogorskoye,52.2953,86.1979,11.360000000000014,85,98,1.55,RU,1686611512
206,waingapu,-9.6567,120.2641,23.620000000000005,82,12,4.23,ID,1686611513
207,nowy tomysl,52.3195,16.1284,15.25,58,4,2.48,PL,1686611513
208,rabigh,22.7986,39.0349,30.610000000000014,40,0,3.41,SA,1686611514
209,fomboni,-12.28,43.7425,26.30000000000001,59,2,1.52,KM,1686611514
210,hobyo,5.3505,48.5268,25.899999999999977,86,88,12.2,SO,1686611515
211,cooper's town,26.8667,-77.5167,27.810000000000002,78,37,7.25,BS,1686611515
212,avarua,-21.2078,-159.775,26.180000000000007,83,75,4.63,CK,1686611516
213,hadibu,12.65,54.0333,28.25999999999999,78,100,9.14,YE,1686611462
214,poronaysk,49.2167,143.1167,8.379999999999995,98,100,2.04,RU,1686611518
215,kalawit,8.0667,122.5167,26.980000000000018,83,28,0.8,PH,1686611518
216,zhezqazghan,47.7833,67.7667,20.829999999999984,33,61,4.8,KZ,1686611519
217,west livingston,30.6983,-95.0019,34.18000000000001,41,0,2.96,US,1686611519
218,vinton,37.281,-79.897,24.139999999999986,58,40,6.17,US,1686611520
219,pampa,35.5362,-100.9599,21.579999999999984,77,98,5.66,US,1686611521
220,port lincoln,-34.7333,135.8667,13.410000000000025,68,56,10.0,AU,1686611521
221,hefei,31.8639,117.2808,23.910000000000025,74,100,1.89,CN,1686611521
222,taoudenni,22.6783,-3.9836,36.00999999999999,11,3,4.19,ML,1686611522
223,farasan,16.7022,42.1183,32.72000000000003,72,100,10.72,SA,1686611522
224,remire-montjoly,4.9167,-52.2667,27.170000000000016,83,0,2.06,GF,1686611523
225,berezovyy,51.6667,135.7,18.160000000000025,58,8,1.27,RU,1686611523
226,antigonish,45.6169,-61.9986,20.79000000000002,76,5,0.79,CA,1686611524
227,georgetown,5.4112,100.3354,29.110000000000014,79,20,3.09,MY,1686611450
228,vodnyy,63.5046,53.4095,11.279999999999973,83,98,3.92,RU,1686611525
229,kalmunai,7.4167,81.8167,26.75,79,100,2.27,LK,1686611526
230,lincoln,40.8,-96.667,26.75999999999999,34,0,1.34,US,1686611526
231,el porvenir,13.7617,-87.3458,29.779999999999973,76,97,1.47,HN,1686611527
232,dunedin,-45.8742,170.5036,13.370000000000005,63,96,2.68,NZ,1686611527
233,lubao,14.9167,120.55,27.689999999999998,84,93,2.77,PH,1686611528
234,el quebrachal,-25.2833,-64.0667,10.180000000000007,40,100,3.74,AR,1686611528
235,minas de marcona,-15.2119,-75.1103,12.759999999999991,84,33,7.53,PE,1686611529
236,newala kisimani,-10.95,39.2833,15.660000000000025,93,4,2.24,TZ,1686611529
237,shigony,53.3875,48.6777,11.019999999999982,64,100,6.24,RU,1686611530
238,porto novo,6.4965,2.6036,24.75999999999999,80,48,2.69,BJ,1686611530
239,stettler,52.3168,-112.7186,28.339999999999975,26,11,2.06,CA,1686611531
240,playa vicente,17.8333,-95.8167,41.81999999999999,26,39,6.73,MX,1686611531
241,severomorsk,69.0689,33.4162,12.370000000000005,93,100,2.37,RU,1686611532
242,znamenskoye,57.1281,73.8282,6.680000000000007,72,100,1.64,RU,1686611533
243,selkirk,50.1436,-96.8845,29.230000000000018,35,63,2.98,CA,1686611533
244,sterling,39.0062,-77.4286,23.060000000000002,73,100,8.23,US,1686611534
245,sodra sandby,56.5667,16.6167,12.310000000000002,78,0,2.88,SE,1686611534
246,sai buri,6.7013,101.6168,25.649999999999977,88,77,1.89,TH,1686611535
247,yatou,37.15,122.3833,18.529999999999973,75,89,1.39,CN,1686611535
248,arno,60.1167,18.6333,12.25,63,8,4.15,SE,1686611536
249,rodino,52.5,80.25,13.899999999999977,94,62,3.06,RU,1686611536
250,cockburn town,21.4612,-71.1419,28.160000000000025,84,60,9.44,TC,1686611268
251,phan rang-thap cham,11.5667,108.9833,26.939999999999998,77,100,2.08,VN,1686611537
252,pailon,-17.65,-62.75,11.509999999999991,52,100,5.71,BO,1686611538
253,newquay,50.4132,-5.0819,15.569999999999993,94,100,2.57,GB,1686611538
254,san antonio de pale,-1.4014,5.6325,24.589999999999975,89,75,2.84,GQ,1686611539
255,saint-pierre,-21.3393,55.4781,22.689999999999998,73,0,2.57,RE,1686611540
256,benghazi,32.1167,20.0667,21.75,83,0,4.12,LY,1686611540
257,sirjan,29.452,55.6814,25.19999999999999,28,32,2.67,IR,1686611541
258,coquimbo,-29.9533,-71.3436,11.0,81,40,2.57,CL,1686611541
259,celestun,20.8667,-90.4,30.74000000000001,73,0,6.09,MX,1686611542
260,vila velha,-20.3297,-40.2925,24.120000000000005,88,0,5.66,BR,1686611542
261,okhotsk,59.3833,143.3,8.089999999999975,88,89,4.59,RU,1686611543
262,dompu,-8.5356,118.4622,24.069999999999993,86,88,1.65,ID,1686611543
263,vereshchagino,58.0789,54.6557,4.779999999999973,74,2,1.64,RU,1686611544
264,klyuchi,52.2667,79.1667,15.470000000000027,82,77,4.32,RU,1686611545
265,deniliquin,-35.5333,144.9667,9.819999999999993,83,89,3.98,AU,1686611545
266,kuraymah,18.55,31.85,34.620000000000005,15,37,4.82,SD,1686611546
267,mutuali,-14.8706,37.0044,16.74000000000001,52,16,0.82,MZ,1686611546
268,hilo,19.7297,-155.09,29.0,63,20,3.6,US,1686611547
269,keflavik,64.0049,-22.5624,9.100000000000023,81,75,2.57,IS,1686611547
270,na mom,6.9586,100.5568,26.060000000000002,94,75,1.03,TH,1686611548
271,ben gardane,33.1378,11.2197,25.319999999999993,52,1,4.2,TN,1686611548
272,monterrey,25.6667,-100.3167,36.660000000000025,25,2,4.22,MX,1686611549
273,san patricio,28.017,-97.5169,33.579999999999984,58,3,7.8,US,1686611549
274,urumqi,43.801,87.6005,19.680000000000007,64,0,1.0,CN,1686611484
275,dauphin,51.1494,-100.0502,28.230000000000018,42,0,3.6,CA,1686611550
276,elko,41.0002,-115.5012,20.829999999999984,50,89,3.13,US,1686611551
277,alegrete,-29.7831,-55.7919,5.899999999999977,57,0,3.51,BR,1686611471
278,green river,41.5286,-109.4662,19.579999999999984,43,99,4.02,US,1686611552
279,kencong,-8.2833,113.3667,23.24000000000001,90,39,1.36,ID,1686611552
280,dwarka,22.2394,68.9678,28.889999999999986,84,88,14.4,IN,1686611553
281,santa elena de uairen,4.6167,-61.1333,20.850000000000023,90,31,1.65,VE,1686611553
282,saint-francois,46.4154,3.9054,14.970000000000027,100,89,1.03,FR,1686611554
283,aripuana,-9.1667,-60.6333,27.94999999999999,66,88,1.19,BR,1686611500
284,buala,-8.145,159.5921,29.120000000000005,75,59,2.89,SB,1686611555
285,hami,42.8,93.45,27.189999999999998,26,66,7.64,CN,1686611555
286,cherdyn',60.403,56.4787,5.759999999999991,81,21,2.35,RU,1686611556
287,palikir - national government center,6.9248,158.1611,29.560000000000002,74,100,5.14,FM,1686611557
288,dzilam gonzalez,21.2833,-88.9333,32.50999999999999,60,16,4.48,MX,1686611558
289,talnakh,69.4865,88.3972,7.490000000000009,93,99,3.28,RU,1686611558
290,mabaruma,8.2,-59.7833,25.149999999999977,91,83,1.68,GY,1686611559
291,duluth,46.7833,-92.1066,21.180000000000007,59,40,3.6,US,1686611559
292,gejiu,23.306,103.1635,15.339999999999975,95,99,0.15,CN,1686611560
293,sovetskaya gavan',48.9723,140.2878,9.899999999999977,96,100,2.16,RU,1686611528
294,nuuk,64.1835,-51.7216,0.4900000000000091,100,100,4.12,GL,1686611561
295,uturoa,-16.7333,-151.4333,27.30000000000001,69,4,8.01,PF,1686611561
296,sitka,57.0531,-135.33,13.089999999999975,62,75,6.17,US,1686611562
297,kayangel,8.0823,134.7173,27.54000000000002,78,99,2.9,PW,1686611562
298,rikaze,29.25,88.8833,12.430000000000007,49,40,1.57,CN,1686611563
299,kudat,6.8837,116.8477,27.149999999999977,80,99,1.56,MY,1686611563
300,pauini,-7.7136,-66.9764,24.069999999999993,96,83,0.13,BR,1686611564
301,queenstown,-31.8976,26.8753,8.95999999999998,52,84,8.12,ZA,1686611564
302,pangkalanbuun,-2.6833,111.6167,24.370000000000005,98,100,1.1,ID,1686611565
303,ghat,24.9647,10.1728,32.31,15,7,1.26,LY,1686611565
304,la ronge,55.1001,-105.2842,22.269999999999982,40,100,3.6,CA,1686611566
305,selfoss,63.9331,-20.9971,7.949999999999989,77,68,2.9,IS,1686611566
306,bom jesus,-9.0744,-44.3586,29.389999999999986,37,42,2.74,BR,1686611567
307,wladyslawowo,54.7909,18.4009,15.610000000000014,72,99,5.27,PL,1686611568
308,lorengau,-2.0226,147.2712,29.069999999999993,79,16,4.86,PG,1686611570
309,beyneu,45.3167,55.2,26.220000000000027,18,83,4.07,KZ,1686611570
310,la tijera,19.9,-104.4,28.389999999999986,38,15,4.71,MX,1686611571
311,kharakvasla,18.4333,73.7667,24.45999999999998,81,71,3.73,IN,1686611571
312,shalazhi,43.0978,45.3608,20.79000000000002,82,82,2.3,RU,1686611572
313,guichon,-32.35,-57.2,5.079999999999984,55,2,2.65,UY,1686611572
314,nar'yan-mar,67.6713,53.087,6.779999999999973,90,68,5.01,RU,1686611573
315,sainte-anne-des-monts,49.124,-66.4924,15.079999999999984,72,1,4.12,CA,1686611573
316,praia da vitoria,38.7333,-27.0667,21.29000000000002,88,20,2.29,PT,1686611574
317,tadmur,34.5608,38.2805,23.00999999999999,36,0,5.02,SY,1686611574
318,bejaia,36.7559,5.0843,23.54000000000002,75,100,4.07,DZ,1686611527
319,rasra,25.85,83.85,33.56999999999999,45,42,2.74,IN,1686611280
320,sidney,-33.8679,151.2073,15.860000000000014,80,0,2.57,AU,1686611364
321,agapovka,53.2973,59.1348,9.70999999999998,83,100,4.56,RU,1686611576
322,kolonia town,6.964,158.206,30.149999999999977,74,100,5.14,FM,1686611577
323,zelenoborskiy,66.845,32.3622,13.430000000000007,57,100,7.1,RU,1686611577
324,kivioli,59.3531,26.9711,10.829999999999984,59,5,2.48,EE,1686611578
325,cuito,-12.3833,16.9333,13.350000000000023,45,3,1.74,AO,1686611578
326,kill devil hills,36.0307,-75.676,26.149999999999977,92,75,7.72,US,1686611579
327,nguigmi,14.2495,13.1092,30.139999999999986,56,0,3.41,NE,1686611580
328,mana,5.6592,-53.7767,26.24000000000001,89,83,4.2,GF,1686611580
329,nova sintra,14.8667,-24.7167,21.939999999999998,83,63,6.76,CV,1686611581
330,vanimo,-2.6741,141.3028,25.779999999999973,88,100,2.35,PG,1686611581
331,novodvinsk,64.4165,40.8122,13.399999999999977,56,93,3.79,RU,1686611582
332,happy valley-goose bay,53.3168,-60.3315,18.319999999999993,45,100,2.06,CA,1686611582
333,araguari,-18.6472,-48.1872,23.129999999999995,39,79,2.09,BR,1686611583
334,maine soroa,13.2114,12.0241,32.93000000000001,42,67,1.94,NE,1686611583
335,malakal,9.5334,31.6605,26.879999999999995,65,88,1.55,SS,1686611584
336,wakkanai,45.4094,141.6739,15.360000000000014,91,99,1.24,JP,1686611584
337,mount pleasant,32.7941,-79.8626,28.269999999999982,82,20,6.69,US,1686611585
338,myski,53.709,87.8014,11.639999999999986,89,100,1.16,RU,1686611586
339,pathein,16.7833,94.7333,26.20999999999998,87,99,2.86,MM,1686611586
340,yinchuan,38.4681,106.2731,21.410000000000025,25,3,2.01,CN,1686611587
341,ma'rib,15.4591,45.3253,29.99000000000001,17,100,2.89,YE,1686611587
342,nizhnevartovsk,60.9344,76.5531,7.160000000000025,65,75,3.13,RU,1686611588
343,san miguel,13.4833,-88.1833,30.930000000000007,72,99,2.38,SV,1686611588
344,ciudad insurgentes,25.2625,-111.7753,27.519999999999982,29,100,8.33,MX,1686611589
345,pangoa,-12.1167,-73.0,21.819999999999993,95,73,0.98,PE,1686611590
346,oyama,36.3,139.8,25.339999999999975,78,76,1.65,JP,1686611573
347,egilsstadir,65.2653,-14.3948,10.100000000000023,66,0,4.12,IS,1686611591
348,port alfred,-33.5906,26.891,11.920000000000016,80,81,0.45,ZA,1686611591
349,abou el hassan,36.4166,1.1962,23.029999999999973,62,48,3.64,DZ,1686611592
350,inhambane,-23.865,35.3833,20.529999999999973,89,0,4.51,MZ,1686611592
351,carnarvon,-24.8667,113.6333,14.20999999999998,46,0,7.05,AU,1686611593
352,itaituba,-4.2761,-55.9836,27.629999999999995,75,97,0.18,BR,1686611593
353,choibalsan,48.0667,114.5,22.029999999999973,38,73,3.56,MN,1686611594
354,griffith,41.5284,-87.4237,20.850000000000023,45,100,4.12,US,1686611595
355,gewane,10.1664,40.6453,30.04000000000002,43,77,1.36,ET,1686611595
356,ugoofaaru,5.6667,73.0,28.889999999999986,80,89,7.86,MV,1686611596
357,andapa,-14.65,49.65,17.879999999999995,98,47,0.56,MG,1686611596
358,sao jose da coroa grande,-8.8978,-35.1478,24.839999999999975,86,9,4.74,BR,1686611597
359,corinto,37.9407,22.9573,18.420000000000016,76,72,0.73,GR,1686611597
360,lazaro cardenas,17.9583,-102.2,30.680000000000007,58,12,6.22,MX,1686611537
361,kuanda,56.3161,116.0806,11.129999999999995,70,68,1.73,RU,1686611598
362,shenjiamen,29.9576,122.298,21.95999999999998,94,100,2.75,CN,1686611599
363,enewetak,11.3474,162.3373,27.870000000000005,83,24,8.81,MH,1686611599
364,hawera,-39.5917,174.2833,12.569999999999993,72,19,1.61,NZ,1686611600
365,chandbali,20.7833,86.7667,30.910000000000025,68,98,2.7,IN,1686611600
366,nouadhibou,20.931,-17.0347,22.139999999999986,83,0,6.69,MR,1686611601
367,pisco,-13.7,-76.2167,21.180000000000007,73,0,9.77,PE,1686611601
368,santana,-0.0583,-51.1817,27.25,94,75,2.57,BR,1686611602
369,aginskoye,51.1,114.53,22.94999999999999,41,76,1.98,RU,1686611602
370,shimokizukuri,40.8061,140.3861,20.680000000000007,93,97,2.67,JP,1686611603
371,opuwo,-18.0607,13.84,12.360000000000014,16,13,1.96,NA,1686611603
372,uliastay,47.7417,96.8444,13.379999999999995,79,89,2.42,MN,1686611604
373,lospalos,-8.5186,127.0025,22.370000000000005,83,66,3.76,TL,1686611598
374,hanzhong,33.0728,107.0303,18.319999999999993,76,0,0.63,CN,1686611605
375,el dovio,4.5079,-76.2362,19.310000000000002,95,67,2.25,CO,1686611606
376,synel'nykove,48.3204,35.5179,13.060000000000002,89,73,4.78,UA,1686611606
377,boyolangu,-8.1181,111.8935,23.889999999999986,92,78,2.18,ID,1686611607
378,zhangye,38.9342,100.4517,21.44999999999999,24,0,3.36,CN,1686611607
379,nantucket,41.2835,-70.0995,21.230000000000018,82,100,5.14,US,1686611608
380,sur,22.5667,59.5289,30.94999999999999,58,100,1.03,OM,1686611608
381,ambodifotatra,-16.9833,49.85,23.44999999999999,80,7,2.47,MG,1686611609
382,pointe michel,15.25,-61.3833,28.310000000000002,76,10,5.92,DM,1686611609
383,rio cuarto,-33.1307,-64.3499,5.319999999999993,48,0,0.0,AR,1686611610
384,tegucigalpa,14.0818,-87.2068,27.569999999999993,74,40,1.03,HN,1686611610
385,porec,45.2258,13.5939,21.50999999999999,68,78,2.99,HR,1686611611
386,tocopilla,-22.092,-70.1979,16.69999999999999,77,35,5.34,CL,1686611611
387,concepcion,-36.827,-73.0498,14.04000000000002,41,0,5.14,CL,1686611612
388,buurhakaba,2.8026,44.0781,22.74000000000001,86,52,5.38,SO,1686611613
389,kamloops,50.6665,-120.3192,33.25,25,40,2.06,CA,1686611613
390,placido de castro,-10.3353,-67.1856,23.970000000000027,97,81,0.38,BR,1686611614
391,tahe,52.3333,124.7333,22.24000000000001,48,100,1.21,CN,1686611614
392,nizhneangarsk,55.7833,109.55,9.560000000000002,59,97,5.05,RU,1686611615
393,zhaozhou,45.6833,125.3167,20.920000000000016,53,7,1.62,CN,1686611615
394,sisimiut,66.9395,-53.6735,0.9599999999999795,81,16,5.07,GL,1686611616
395,katsuren-haebaru,26.3369,127.8719,28.360000000000014,100,75,4.12,JP,1686611616
396,namibe,-15.1961,12.1522,16.95999999999998,75,3,1.96,AO,1686611618
397,moyale,3.5167,39.0584,20.00999999999999,54,98,2.45,KE,1686611618
398,la sierpe,2.8518,-77.6155,27.310000000000002,82,78,1.56,CO,1686611619
399,cedar falls,42.5278,-92.4455,25.05000000000001,33,40,4.12,US,1686611619
400,tazacorte,28.629,-17.9293,21.689999999999998,86,75,3.09,ES,1686611620
401,kununurra,-15.7667,128.7333,20.139999999999986,68,79,0.0,AU,1686611620
402,papao,-17.75,-149.55,28.970000000000027,75,5,8.61,PF,1686611621
403,tshabong,-26.05,22.45,8.329999999999984,68,0,2.79,BW,1686611622
404,machico,32.7,-16.7667,20.55000000000001,81,40,4.12,PT,1686611622
405,ojinaga,29.5667,-104.4167,40.47000000000003,16,0,6.69,MX,1686611623
406,yelizovo,53.1873,158.3805,20.230000000000018,42,0,2.0,RU,1686611623
407,takoradi,4.8845,-1.7554,25.170000000000016,73,17,3.04,GH,1686611624
408,imeko,7.45,2.85,22.54000000000002,84,77,2.08,NG,1686611624
409,tucuma,-0.1833,-50.05,24.75,93,32,2.98,BR,1686611625
410,al jawf,29.5,38.75,26.30000000000001,26,0,3.57,SA,1686611625
411,mount pearl,47.5166,-52.7813,7.449999999999989,90,100,7.72,CA,1686611626
412,manokwari,-0.8667,134.0833,25.639999999999986,84,98,0.87,ID,1686611626
413,umba,66.6871,34.3429,12.420000000000016,62,94,6.93,RU,1686611627
414,uacu cungo,-11.3634,15.1208,15.269999999999982,88,5,0.72,AO,1686611627
415,zouerate,22.7187,-12.4521,30.350000000000023,22,0,5.06,MR,1686611344
416,vedea,43.7833,25.7833,14.730000000000018,75,100,6.1,RO,1686611628
417,paita,-5.0892,-81.1144,24.839999999999975,72,0,8.71,PE,1686611629
418,alice town,25.7167,-79.3,28.69999999999999,76,1,7.21,BS,1686611629
419,arauco,-37.2463,-73.3175,9.069999999999993,76,0,1.98,CL,1686611630
420,hasaki,35.7333,140.8333,21.420000000000016,96,96,7.93,JP,1686611630
421,motueka,-41.1333,173.0167,10.199999999999989,61,1,0.96,NZ,1686611406
422,kosh-agach,50.0,88.6667,8.490000000000009,73,0,1.19,RU,1686611631
423,belomorsk,64.5232,34.7668,15.829999999999984,49,100,5.2,RU,1686611632
424,cedar park,30.5052,-97.8203,36.110000000000014,51,0,6.71,US,1686611632
425,muisne,0.6,-80.0333,26.920000000000016,86,92,3.96,EC,1686611633
426,north battleford,52.7834,-108.2847,27.04000000000002,53,75,6.69,CA,1686611633
427,gaalkacyo,6.7697,47.4308,25.879999999999995,65,82,10.17,SO,1686611634
428,saldanha,-33.0117,17.9442,14.420000000000016,80,83,6.45,ZA,1686611635
429,ahmadpur east,29.1431,71.2598,35.48000000000002,37,0,9.1,PK,1686611635
430,zavitinsk,50.1167,129.45,18.0,82,8,4.25,RU,1686611636
431,nagqu,31.5,92.0,5.759999999999991,78,100,3.21,CN,1686611637
432,letterkenny,54.95,-7.7333,18.089999999999975,95,100,0.68,IE,1686611439
433,puerto baquerizo moreno,-0.9,-89.6,26.69999999999999,83,40,6.69,EC,1686611638
434,jieshi,22.8134,115.8257,26.870000000000005,86,96,4.13,CN,1686611639
435,kirakira,-10.4544,161.9205,29.25999999999999,74,24,2.97,SB,1686611639
436,tarrafal de sao nicolau,16.5667,-24.3667,24.339999999999975,88,34,5.66,CV,1686611640
437,maluso,6.543,121.8753,28.19999999999999,75,22,1.47,PH,1686611641
438,rehoboth,-23.3167,17.0833,7.6200000000000045,55,0,1.7,NA,1686611641
439,palembang,-2.9167,104.7458,25.19999999999999,94,40,1.03,ID,1686611626
440,tadine,-21.55,167.8833,22.660000000000025,63,40,5.94,NC,1686611642
441,peace river,56.2501,-117.286,25.319999999999993,41,75,4.63,CA,1686611643
442,bengkulu,-3.8004,102.2655,23.889999999999986,84,94,1.73,ID,1686611451
443,lyantor,61.6195,72.1555,4.0400000000000205,79,64,4.33,RU,1686611644
444,darnah,32.767,22.6367,21.079999999999984,90,0,6.22,LY,1686611645
445,quellon,-43.1167,-73.6167,3.2900000000000205,93,0,1.03,CL,1686611567
446,smithers,54.7804,-127.1743,22.329999999999984,40,75,6.17,CA,1686611646
447,uyar,55.81,94.3153,10.629999999999995,89,51,2.25,RU,1686611647
448,ixtapa,20.7,-105.2,29.720000000000027,70,0,6.17,MX,1686611647
449,san mariano,7.5,126.0,25.100000000000023,89,81,0.26,PH,1686611648
450,moga,30.8,75.1667,34.69,29,11,2.15,IN,1686611648
451,petrolina,-9.3986,-40.5008,25.180000000000007,69,20,4.12,BR,1686611547
452,seremban,2.7297,101.9381,26.55000000000001,89,30,1.27,MY,1686611649
453,howard springs,-12.497,131.047,23.100000000000023,50,73,3.59,AU,1686611650
454,chornukhyne,48.3278,38.5019,10.899999999999977,97,79,2.9,UA,1686611650
455,gizo,-8.103,156.8419,28.75999999999999,77,8,4.45,SB,1686611651
456,bim son,20.0781,105.8603,28.389999999999986,83,100,0.89,VN,1686611651
457,east ballina,-28.8667,153.5833,16.70999999999998,81,6,1.65,AU,1686611652
458,vilyuysk,63.7553,121.6247,10.579999999999984,44,0,4.58,RU,1686611652
459,inari,68.906,27.0288,14.259999999999991,58,68,4.61,FI,1686611653
460,arteche,12.2645,125.4048,27.25999999999999,82,88,2.3,PH,1686611653
461,kamaishi,39.2667,141.8833,18.129999999999995,95,100,2.09,JP,1686611485
462,northam,51.0333,-4.2167,15.519999999999982,96,40,1.62,GB,1686611654
463,fisterra,42.9049,-9.2629,18.339999999999975,91,100,2.71,ES,1686611655
464,albstadt,48.2164,9.026,12.620000000000005,78,8,3.89,DE,1686611655
465,camana,-16.6228,-72.7111,18.220000000000027,79,81,4.5,PE,1686611656
466,pontianak,-0.0333,109.3333,24.139999999999986,100,100,1.03,ID,1686611657
467,crane,31.3974,-102.3501,38.02999999999997,8,0,8.03,US,1686611657
468,san luis de la loma,17.2706,-100.8939,31.44999999999999,61,26,4.91,MX,1686611658
469,hengshui,37.7322,115.7011,25.910000000000025,32,18,2.13,CN,1686611658
470,sosnogorsk,63.6023,53.8817,11.329999999999984,83,99,3.48,RU,1686611659
471,mordovo,52.0834,40.77,10.779999999999973,70,100,6.74,RU,1686611659
472,kingaroy,-26.5333,151.8333,16.55000000000001,72,0,0.35,AU,1686611660
473,fort mcmurray,56.7268,-111.381,20.920000000000016,45,0,2.06,CA,1686611660
474,notodden,59.5594,9.2585,16.25999999999999,59,69,0.38,NO,1686611661
475,portland,45.5234,-122.6762,33.839999999999975,43,20,5.14,US,1686611534
476,butembo,0.15,29.2833,14.480000000000018,97,87,1.23,CD,1686611662
477,margate,51.3813,1.3862,16.089999999999975,78,26,2.24,GB,1686611662
478,sabanozu,40.4825,33.2835,13.569999999999993,91,11,2.94,TR,1686611663
479,kuqa,41.7278,82.9364,25.95999999999998,29,40,3.13,CN,1686611663
480,makurazaki,31.2667,130.3167,22.779999999999973,88,100,2.17,JP,1686611520
481,demre,36.2537,29.9777,20.920000000000016,80,5,1.37,TR,1686611664
482,taltal,-25.4,-70.4833,14.170000000000016,77,26,0.98,CL,1686611665
483,ermelo,-26.5333,29.9833,5.819999999999993,88,10,2.49,ZA,1686611567
484,nemuro,43.3236,145.575,12.0,97,100,4.63,JP,1686611666
485,mirnyy,62.5353,113.9611,10.839999999999975,43,1,0.89,RU,1686611541
486,sibut,5.718,19.0739,21.600000000000023,95,63,1.59,CF,1686611667
487,argenton-sur-creuse,46.59,1.5198,18.339999999999975,93,95,1.35,FR,1686611667
488,mont-laurier,46.5501,-75.4993,23.939999999999998,58,100,4.09,CA,1686611668
489,murfreesboro,35.8456,-86.3903,22.139999999999986,69,0,2.57,US,1686611446
490,high rock,26.6208,-78.2833,25.160000000000025,72,5,6.14,BS,1686611669
491,uttarkashi,30.7333,78.45,20.75,64,0,3.04,IN,1686611670
492,manggar,-2.8833,108.2667,27.670000000000016,85,80,6.1,ID,1686611671
493,mawu,29.5923,107.3139,19.889999999999986,83,76,0.49,CN,1686611671
494,severo-yeniseyskiy,60.3725,93.0408,7.939999999999998,76,100,2.55,RU,1686611672
495,tayu,-6.5397,111.0518,24.5,90,86,3.13,ID,1686611672
496,codajas,-3.8367,-62.0569,26.529999999999973,78,100,1.13,BR,1686611673
497,mejit,10.2753,170.8646,28.100000000000023,82,57,8.1,MH,1686611673
498,angatuba,-23.4897,-48.4128,15.95999999999998,92,93,5.08,BR,1686611674
499,mitu,1.1983,-70.1733,24.79000000000002,91,97,0.4,CO,1686611674
500,berdigestyakh,62.0989,126.6992,7.310000000000002,56,100,3.2,RU,1686611675
501,kilimatinde,-5.85,34.95,17.629999999999995,76,19,0.84,TZ,1686611675
502,lihue,21.9789,-159.3672,28.730000000000018,72,20,6.17,US,1686611676
503,san buenaventura,27.0833,-101.5333,42.079999999999984,19,8,5.62,MX,1686611677
504,son la,21.3167,103.9,21.75999999999999,98,100,0.71,VN,1686611427
505,ouadda,8.0777,22.4007,20.29000000000002,98,71,0.23,CF,1686611678
506,hotan,37.0997,79.9269,26.360000000000014,23,62,2.25,CN,1686611678
507,acajutla,13.5928,-89.8275,29.649999999999977,77,84,1.81,SV,1686611679
508,ventspils,57.3894,21.5606,7.110000000000014,93,0,0.0,LV,1686611592
509,orsa,54.5153,30.4053,8.870000000000005,83,99,3.36,BY,1686611680
510,khovd,48.0056,91.6419,14.019999999999982,46,44,3.47,MN,1686611680
511,tralee,52.2704,-9.7026,14.329999999999984,95,60,1.4,IE,1686611463
512,manavalakurichi,8.1333,77.3,26.94999999999999,82,100,5.7,IN,1686611682
513,diebougou,10.9667,-3.25,27.00999999999999,69,100,1.96,BF,1686611682
514,ndioum,16.5129,-14.6471,36.889999999999986,14,38,4.61,SN,1686611684
515,darwin,-12.4611,130.8418,23.139999999999986,60,0,3.6,AU,1686611684
516,usakos,-22.0,15.6,11.360000000000014,56,0,2.27,NA,1686611685
517,lewistown,40.5992,-77.5714,18.019999999999982,90,100,5.14,US,1686611685
518,alofi,-19.0595,-169.9187,24.089999999999975,94,100,1.03,NU,1686611628
519,caraballeda,10.6112,-66.8522,27.189999999999998,78,62,6.17,VE,1686611686
520,holualoa,19.6228,-155.9522,26.060000000000002,88,40,5.14,US,1686611687
521,imperia,43.9667,7.7833,18.160000000000025,78,75,2.65,IT,1686611628
522,ikalamavony,-21.15,46.5833,14.470000000000027,59,0,1.35,MG,1686611688
523,mramani,-12.3464,44.5286,24.180000000000007,73,7,1.11,KM,1686611688
524,ikom,5.9667,8.7063,23.310000000000002,97,100,1.04,NG,1686611689
525,karratha,-20.7377,116.8463,17.910000000000025,42,2,7.08,AU,1686611689
526,montepuez,-13.1256,38.9997,15.589999999999975,97,15,1.39,MZ,1686611690
527,lethem,3.3803,-59.7968,26.829999999999984,76,53,2.6,GY,1686611691
528,amursk,50.2261,136.8994,16.45999999999998,62,0,3.91,RU,1686611531
529,ma'an,26.9775,110.7211,18.639999999999986,96,100,0.65,CN,1686611692
530,mulanje,-16.0316,35.5,18.5,54,10,2.2,MW,1686611692
531,kita,13.0349,-9.4895,29.670000000000016,53,98,1.36,ML,1686611693
532,bolgar,54.95,49.0667,10.680000000000007,75,54,4.96,RU,1686611693
533,lata,40.1629,-8.3327,16.149999999999977,98,26,1.29,PT,1686611694
534,seaside,36.6111,-121.8516,20.660000000000025,74,20,8.75,US,1686611694
535,dumraon,25.55,84.15,33.0,45,16,2.73,IN,1686611695
536,lisakovsk,52.5369,62.4936,11.019999999999982,72,100,5.63,KZ,1686611695
537,bondoukou,8.0333,-2.8,21.829999999999984,89,45,2.06,CI,1686611696
538,cold lake,54.4502,-110.2017,23.120000000000005,35,0,4.63,CA,1686611697
539,mammoth lakes,37.6485,-118.9721,14.180000000000007,71,40,3.6,US,1686611698
540,prado,-17.3411,-39.2208,23.100000000000023,82,0,3.5,BR,1686611698
541,sos'va,59.1766,61.8558,3.990000000000009,71,24,2.63,RU,1686611699
542,bantay,17.5847,120.3892,25.870000000000005,92,100,6.07,PH,1686611699
543,rock springs,41.5875,-109.2029,19.060000000000002,41,100,4.47,US,1686611700
544,carauari,-4.8828,-66.8958,24.399999999999977,96,59,0.4,BR,1686611701
545,chinju,35.1928,128.0847,21.05000000000001,86,89,1.18,KR,1686611707
546,cajabamba,-7.6167,-78.05,17.00999999999999,63,58,2.04,PE,1686611708
547,san jose de feliciano,-30.3845,-58.7517,6.6299999999999955,47,46,3.92,AR,1686611708
548,usogorsk,63.4106,48.6872,12.560000000000002,79,99,1.2,RU,1686611709
549,haiku-pauwela,20.9219,-156.3051,29.160000000000025,51,40,7.72,US,1686611709
550,amahai,-3.3333,128.9167,27.370000000000005,88,99,1.92,ID,1686611710
551,craig,40.5153,-107.5464,15.920000000000016,58,75,6.17,US,1686611710
552,sechura,-5.5569,-80.8222,25.350000000000023,64,0,8.46,PE,1686611711
553,ratnagiri,16.9833,73.3,28.279999999999973,80,84,6.41,IN,1686611711
554,viedma,-40.8135,-62.9967,6.8799999999999955,55,2,3.25,AR,1686611713
555,yarmouth,41.7057,-70.2286,22.410000000000025,81,40,3.09,US,1686611713
556,avallon,47.4833,3.9,16.0,86,58,1.65,FR,1686611714
